{"type":"FeatureCollection", "features": [
{"type":"Feature","geometry":{"type":"Point","coordinates":[72.877312,19.171569,0]},"properties":{"Name":"Dindoshi PS","descriptio":"","timestamp":"","begin":"","end":"","altitudeMo":"","tessellate":-1,"extrude":0,"visibility":-1,"drawOrder":null,"icon":"","type":"Police Station","state":"Maharastra","district":"Mumbai","city":"Mumbai","location_p":"1279","location_1":"Shivaji Nagar","gid":"1","layer_swit":"poi_police_station"}},
{"type":"Feature","geometry":{"type":"Point","coordinates":[72.861748,19.037868,0]},"properties":{"Name":"Sion PS","descriptio":"","timestamp":"","begin":"","end":"","altitudeMo":"","tessellate":-1,"extrude":0,"visibility":-1,"drawOrder":null,"icon":"","type":"Police Station","state":"Maharastra","district":"Mumbai","city":"Mumbai","location_p":"1303","location_1":"Sion Hospital Colony","gid":"2","layer_swit":"poi_police_station"}},
{"type":"Feature","geometry":{"type":"Point","coordinates":[72.840468,19.02306,0]},"properties":{"Name":"Shivaji Park PS","descriptio":"","timestamp":"","begin":"","end":"","altitudeMo":"","tessellate":-1,"extrude":0,"visibility":-1,"drawOrder":null,"icon":"","type":"Police Station","state":"Maharastra","district":"Mumbai","city":"Mumbai","location_p":"1174","location_1":"Kelkarwadi","gid":"3","layer_swit":"poi_police_station"}},
{"type":"Feature","geometry":{"type":"Point","coordinates":[72.854904,19.042069,0]},"properties":{"Name":"Dharavi PS","descriptio":"","timestamp":"","begin":"","end":"","altitudeMo":"","tessellate":-1,"extrude":0,"visibility":-1,"drawOrder":null,"icon":"","type":"Police Station","state":"Maharastra","district":"Mumbai","city":"Mumbai","location_p":"1017","location_1":"Kamla Nehru Nagar","gid":"4","layer_swit":"poi_police_station"}},
{"type":"Feature","geometry":{"type":"Point","coordinates":[72.924156,19.117538,0]},"properties":{"Name":"Parksite PS","descriptio":"","timestamp":"","begin":"","end":"","altitudeMo":"","tessellate":-1,"extrude":0,"visibility":-1,"drawOrder":null,"icon":"","type":"Police Station","state":"Maharastra","district":"Mumbai","city":"Mumbai","location_p":"661","location_1":"Ramwadi","gid":"5","layer_swit":"poi_police_station"}},
{"type":"Feature","geometry":{"type":"Point","coordinates":[72.926301,19.052789,0]},"properties":{"Name":"Mankhurd PS","descriptio":"","timestamp":"","begin":"","end":"","altitudeMo":"","tessellate":-1,"extrude":0,"visibility":-1,"drawOrder":null,"icon":"","type":"Police Station","state":"Maharastra","district":"Mumbai","city":"Mumbai","location_p":"334","location_1":"Lallubhai Compound","gid":"6","layer_swit":"poi_police_station"}},
{"type":"Feature","geometry":{"type":"Point","coordinates":[72.917794,19.04824,0]},"properties":{"Name":"Govandi PS","descriptio":"","timestamp":"","begin":"","end":"","altitudeMo":"","tessellate":-1,"extrude":0,"visibility":-1,"drawOrder":null,"icon":"","type":"Police Station","state":"Maharastra","district":"Mumbai","city":"Mumbai","location_p":"521","location_1":"Deonar Village","gid":"7","layer_swit":"poi_police_station"}},
{"type":"Feature","geometry":{"type":"Point","coordinates":[72.850452,19.209726,0]},"properties":{"Name":"Kandivali PS","descriptio":"","timestamp":"","begin":"","end":"","altitudeMo":"","tessellate":-1,"extrude":0,"visibility":-1,"drawOrder":null,"icon":"","type":"Police Station","state":"Maharastra","district":"Mumbai","city":"Mumbai","location_p":"210","location_1":"Kandivali Police Line","gid":"8","layer_swit":"poi_police_station"}},
{"type":"Feature","geometry":{"type":"Point","coordinates":[72.840419,19.232248,0]},"properties":{"Name":"MHB Colony PS","descriptio":"","timestamp":"","begin":"","end":"","altitudeMo":"","tessellate":-1,"extrude":0,"visibility":-1,"drawOrder":null,"icon":"","type":"Police Station","state":"Maharastra","district":"Mumbai","city":"Mumbai","location_p":"1124","location_1":"Ashok Nagar","gid":"9","layer_swit":"poi_police_station"}},
{"type":"Feature","geometry":{"type":"Point","coordinates":[72.871557,19.162814,0]},"properties":{"Name":"Aarey Sub PS","descriptio":"","timestamp":"","begin":"","end":"","altitudeMo":"","tessellate":-1,"extrude":0,"visibility":-1,"drawOrder":null,"icon":"","type":"Police Station","state":"Maharastra","district":"Mumbai","city":"Mumbai","location_p":"1541","location_1":"Jay Prakash Nagar","gid":"10","layer_swit":"poi_police_station"}},
{"type":"Feature","geometry":{"type":"Point","coordinates":[72.880325,19.058945,0]},"properties":{"Name":"Nehru Nagar PS","descriptio":"","timestamp":"","begin":"","end":"","altitudeMo":"","tessellate":-1,"extrude":0,"visibility":-1,"drawOrder":null,"icon":"","type":"Police Station","state":"Maharastra","district":"Mumbai","city":"Mumbai","location_p":"1334","location_1":"Shiv Shakti Nagar","gid":"11","layer_swit":"poi_police_station"}},
{"type":"Feature","geometry":{"type":"Point","coordinates":[72.843998,19.00666,0]},"properties":{"Name":"Bhoiwada PS","descriptio":"","timestamp":"","begin":"","end":"","altitudeMo":"","tessellate":-1,"extrude":0,"visibility":-1,"drawOrder":null,"icon":"","type":"Police Station","state":"Maharastra","district":"Mumbai","city":"Mumbai","location_p":"955","location_1":"Bhoiwada","gid":"12","layer_swit":"poi_police_station"}},
{"type":"Feature","geometry":{"type":"Point","coordinates":[72.845547,19.157354,0]},"properties":{"Name":"Goregaon PS","descriptio":"","timestamp":"","begin":"","end":"","altitudeMo":"","tessellate":-1,"extrude":0,"visibility":-1,"drawOrder":null,"icon":"","type":"Police Station","state":"Maharastra","district":"Mumbai","city":"Mumbai","location_p":"405","location_1":"Mig Colony","gid":"13","layer_swit":"poi_police_station"}},
{"type":"Feature","geometry":{"type":"Point","coordinates":[72.835819,19.055855,0]},"properties":{"Name":"Bandra PS","descriptio":"","timestamp":"","begin":"","end":"","altitudeMo":"","tessellate":-1,"extrude":0,"visibility":-1,"drawOrder":null,"icon":"","type":"Police Station","state":"Maharastra","district":"Mumbai","city":"Mumbai","location_p":"635","location_1":"Santhosh Nagar","gid":"14","layer_swit":"poi_police_station"}},
{"type":"Feature","geometry":{"type":"Point","coordinates":[72.835241,18.945938,0]},"properties":{"Name":"MRA Marg PS","descriptio":"","timestamp":"","begin":"","end":"","altitudeMo":"","tessellate":-1,"extrude":0,"visibility":-1,"drawOrder":null,"icon":"","type":"Police Station","state":"Maharastra","district":"Mumbai","city":"Mumbai","location_p":"1512","location_1":"Fort","gid":"15","layer_swit":"poi_police_station"}},
{"type":"Feature","geometry":{"type":"Point","coordinates":[72.841403,19.22591,0]},"properties":{"Name":"Borivali PS","descriptio":"","timestamp":"","begin":"","end":"","altitudeMo":"","tessellate":-1,"extrude":0,"visibility":-1,"drawOrder":null,"icon":"","type":"Police Station","state":"Maharastra","district":"Mumbai","city":"Mumbai","location_p":"599","location_1":"Borivali","gid":"16","layer_swit":"poi_police_station"}},
{"type":"Feature","geometry":{"type":"Point","coordinates":[72.857895,19.22814,0]},"properties":{"Name":"Kasturba PS","descriptio":"","timestamp":"","begin":"","end":"","altitudeMo":"","tessellate":-1,"extrude":0,"visibility":-1,"drawOrder":null,"icon":"","type":"Police Station","state":"Maharastra","district":"Mumbai","city":"Mumbai","location_p":"1451","location_1":"Chinchpada","gid":"17","layer_swit":"poi_police_station"}},
{"type":"Feature","geometry":{"type":"Point","coordinates":[72.859319,19.18552,0]},"properties":{"Name":"Kurar PS","descriptio":"","timestamp":"","begin":"","end":"","altitudeMo":"","tessellate":-1,"extrude":0,"visibility":-1,"drawOrder":null,"icon":"","type":"Police Station","state":"Maharastra","district":"Mumbai","city":"Mumbai","location_p":"727","location_1":"Ambewadi","gid":"18","layer_swit":"poi_police_station"}},
{"type":"Feature","geometry":{"type":"Point","coordinates":[72.818779,18.911914,0]},"properties":{"Name":"Cuffe Parade PS","descriptio":"","timestamp":"","begin":"","end":"","altitudeMo":"","tessellate":-1,"extrude":0,"visibility":-1,"drawOrder":null,"icon":"","type":"Police Station","state":"Maharastra","district":"Mumbai","city":"Mumbai","location_p":"649","location_1":"Cuffe Parade","gid":"19","layer_swit":"poi_police_station"}},
{"type":"Feature","geometry":{"type":"Point","coordinates":[72.832244,18.96282,0]},"properties":{"Name":"JJ Marg PS","descriptio":"","timestamp":"","begin":"","end":"","altitudeMo":"","tessellate":-1,"extrude":0,"visibility":-1,"drawOrder":null,"icon":"","type":"Police Station","state":"Maharastra","district":"Mumbai","city":"Mumbai","location_p":"871","location_1":"Jj Hospital And College Campus","gid":"20","layer_swit":"poi_police_station"}},
{"type":"Feature","geometry":{"type":"Point","coordinates":[72.817039,18.96079,0]},"properties":{"Name":"DB Marg PS","descriptio":"","timestamp":"","begin":"","end":"","altitudeMo":"","tessellate":-1,"extrude":0,"visibility":-1,"drawOrder":null,"icon":"","type":"Police Station","state":"Maharastra","district":"Mumbai","city":"Mumbai","location_p":"1587","location_1":"Grant Road","gid":"21","layer_swit":"poi_police_station"}},
{"type":"Feature","geometry":{"type":"Point","coordinates":[72.841358,18.947151,0]},"properties":{"Name":"Yellow Gate PS","descriptio":"","timestamp":"","begin":"","end":"","altitudeMo":"","tessellate":-1,"extrude":0,"visibility":-1,"drawOrder":null,"icon":"","type":"Police Station","state":"Maharastra","district":"Mumbai","city":"Mumbai","location_p":"1503","location_1":"Masjid Bandar","gid":"22","layer_swit":"poi_police_station"}},
{"type":"Feature","geometry":{"type":"Point","coordinates":[72.824783,18.929958,0]},"properties":{"Name":"Marine Drive PS","descriptio":"","timestamp":"","begin":"","end":"","altitudeMo":"","tessellate":-1,"extrude":0,"visibility":-1,"drawOrder":null,"icon":"","type":"Police Station","state":"Maharastra","district":"Mumbai","city":"Mumbai","location_p":"1581","location_1":"Churchgate","gid":"23","layer_swit":"poi_police_station"}},
{"type":"Feature","geometry":{"type":"Point","coordinates":[72.818848,18.978861,0]},"properties":{"Name":"Tardeo PS","descriptio":"","timestamp":"","begin":"","end":"","altitudeMo":"","tessellate":-1,"extrude":0,"visibility":-1,"drawOrder":null,"icon":"","type":"Police Station","state":"Maharastra","district":"Mumbai","city":"Mumbai","location_p":"1132","location_1":"Ratan Tata Colony","gid":"24","layer_swit":"poi_police_station"}},
{"type":"Feature","geometry":{"type":"Point","coordinates":[72.893767,19.051556,0]},"properties":{"Name":"Chembur PS","descriptio":"","timestamp":"","begin":"","end":"","altitudeMo":"","tessellate":-1,"extrude":0,"visibility":-1,"drawOrder":null,"icon":"","type":"Police Station","state":"Maharastra","district":"Mumbai","city":"Mumbai","location_p":"1424","location_1":"Sindhi Society","gid":"25","layer_swit":"poi_police_station"}},
{"type":"Feature","geometry":{"type":"Point","coordinates":[72.8791,19.054719,0]},"properties":{"Name":"Chunabhatti PS","descriptio":"","timestamp":"","begin":"","end":"","altitudeMo":"","tessellate":-1,"extrude":0,"visibility":-1,"drawOrder":null,"icon":"","type":"Police Station","state":"Maharastra","district":"Mumbai","city":"Mumbai","location_p":"1294","location_1":"Tadwadi","gid":"26","layer_swit":"poi_police_station"}},
{"type":"Feature","geometry":{"type":"Point","coordinates":[72.895889,19.065224,0]},"properties":{"Name":"Tilak Nagar PS","descriptio":"","timestamp":"","begin":"","end":"","altitudeMo":"","tessellate":-1,"extrude":0,"visibility":-1,"drawOrder":null,"icon":"","type":"Police Station","state":"Maharastra","district":"Mumbai","city":"Mumbai","location_p":"27","location_1":"Indira Nagar","gid":"27","layer_swit":"poi_police_station"}},
{"type":"Feature","geometry":{"type":"Point","coordinates":[72.844739,19.183603,0]},"properties":{"Name":"Malad PS","descriptio":"","timestamp":"","begin":"","end":"","altitudeMo":"","tessellate":-1,"extrude":0,"visibility":-1,"drawOrder":null,"icon":"","type":"Police Station","state":"Maharastra","district":"Mumbai","city":"Mumbai","location_p":"904","location_1":"Somwari Bazar","gid":"28","layer_swit":"poi_police_station"}},
{"type":"Feature","geometry":{"type":"Point","coordinates":[72.848311,19.142503,0]},"properties":{"Name":"Amboli PS","descriptio":"","timestamp":"","begin":"","end":"","altitudeMo":"","tessellate":-1,"extrude":0,"visibility":-1,"drawOrder":null,"icon":"","type":"Police Station","state":"Maharastra","district":"Mumbai","city":"Mumbai","location_p":"996","location_1":"Prabhat Nagar","gid":"29","layer_swit":"poi_police_station"}},
{"type":"Feature","geometry":{"type":"Point","coordinates":[72.863693,19.015272,0]},"properties":{"Name":"Wadala PS","descriptio":"","timestamp":"","begin":"","end":"","altitudeMo":"","tessellate":-1,"extrude":0,"visibility":-1,"drawOrder":null,"icon":"","type":"Police Station","state":"Maharastra","district":"Mumbai","city":"Mumbai","location_p":"1375","location_1":"Nandkarni Park","gid":"30","layer_swit":"poi_police_station"}},
{"type":"Feature","geometry":{"type":"Point","coordinates":[72.839069,19.0422,0]},"properties":{"Name":"Mahim PS","descriptio":"","timestamp":"","begin":"","end":"","altitudeMo":"","tessellate":-1,"extrude":0,"visibility":-1,"drawOrder":null,"icon":"","type":"Police Station","state":"Maharastra","district":"Mumbai","city":"Mumbai","location_p":"1496","location_1":"Mahim","gid":"31","layer_swit":"poi_police_station"}},
{"type":"Feature","geometry":{"type":"Point","coordinates":[72.852615,19.037129,0]},"properties":{"Name":"Shahu Nagar PS","descriptio":"","timestamp":"","begin":"","end":"","altitudeMo":"","tessellate":-1,"extrude":0,"visibility":-1,"drawOrder":null,"icon":"","type":"Police Station","state":"Maharastra","district":"Mumbai","city":"Mumbai","location_p":"1","location_1":"Dharavi","gid":"32","layer_swit":"poi_police_station"}},
{"type":"Feature","geometry":{"type":"Point","coordinates":[72.820613,19.214632,0]},"properties":{"Name":"Charkop PS","descriptio":"","timestamp":"","begin":"","end":"","altitudeMo":"","tessellate":-1,"extrude":0,"visibility":-1,"drawOrder":null,"icon":"","type":"Police Station","state":"Maharastra","district":"Mumbai","city":"Mumbai","location_p":"465","location_1":"Sector 2 Charkop","gid":"33","layer_swit":"poi_police_station"}},
{"type":"Feature","geometry":{"type":"Point","coordinates":[72.834843,19.084223,0]},"properties":{"Name":"Santacruz PS","descriptio":"","timestamp":"","begin":"","end":"","altitudeMo":"","tessellate":-1,"extrude":0,"visibility":-1,"drawOrder":null,"icon":"","type":"Police Station","state":"Maharastra","district":"Mumbai","city":"Mumbai","location_p":"1301","location_1":"Hasmukh Nagar","gid":"34","layer_swit":"poi_police_station"}},
{"type":"Feature","geometry":{"type":"Point","coordinates":[72.936424,19.151262,0]},"properties":{"Name":"Bhandup PS","descriptio":"","timestamp":"","begin":"","end":"","altitudeMo":"","tessellate":-1,"extrude":0,"visibility":-1,"drawOrder":null,"icon":"","type":"Police Station","state":"Maharastra","district":"Mumbai","city":"Mumbai","location_p":"434","location_1":"Govind Nagar","gid":"35","layer_swit":"poi_police_station"}},
{"type":"Feature","geometry":{"type":"Point","coordinates":[72.81509,19.137704,0]},"properties":{"Name":"Varsova PS","descriptio":"","timestamp":"","begin":"","end":"","altitudeMo":"","tessellate":-1,"extrude":0,"visibility":-1,"drawOrder":null,"icon":"","type":"Police Station","state":"Maharastra","district":"Mumbai","city":"Mumbai","location_p":"1201","location_1":"Ratan Kunj","gid":"36","layer_swit":"poi_police_station"}},
{"type":"Feature","geometry":{"type":"Point","coordinates":[72.876236,19.0648,0]},"properties":{"Name":"Kurla PS","descriptio":"","timestamp":"","begin":"","end":"","altitudeMo":"","tessellate":-1,"extrude":0,"visibility":-1,"drawOrder":null,"icon":"","type":"Police Station","state":"Maharastra","district":"Mumbai","city":"Mumbai","location_p":"961","location_1":"Jagruti Nagar","gid":"37","layer_swit":"poi_police_station"}},
{"type":"Feature","geometry":{"type":"Point","coordinates":[72.782564,19.237608,0]},"properties":{"Name":"Gorai PS","descriptio":"","timestamp":"","begin":"","end":"","altitudeMo":"","tessellate":-1,"extrude":0,"visibility":-1,"drawOrder":null,"icon":"","type":"Police Station","state":"Maharastra","district":"Mumbai","city":"Mumbai","location_p":"728","location_1":"Gorai 2","gid":"38","layer_swit":"poi_police_station"}},
{"type":"Feature","geometry":{"type":"Point","coordinates":[72.968369,19.169038,0]},"properties":{"Name":"Navghar PS","descriptio":"","timestamp":"","begin":"","end":"","altitudeMo":"","tessellate":-1,"extrude":0,"visibility":-1,"drawOrder":null,"icon":"","type":"Police Station","state":"Maharastra","district":"Mumbai","city":"Mumbai","location_p":"296","location_1":"Hanuman Chowk","gid":"39","layer_swit":"poi_police_station"}},
{"type":"Feature","geometry":{"type":"Point","coordinates":[72.830346,18.945336,0]},"properties":{"Name":"LT Marg PS","descriptio":"","timestamp":"","begin":"","end":"","altitudeMo":"","tessellate":-1,"extrude":0,"visibility":-1,"drawOrder":null,"icon":"","type":"Police Station","state":"Maharastra","district":"Mumbai","city":"Mumbai","location_p":"438","location_1":"Tak Wadi","gid":"40","layer_swit":"poi_police_station"}},
{"type":"Feature","geometry":{"type":"Point","coordinates":[72.864815,19.030468,0]},"properties":{"Name":"Antop Hill PS","descriptio":"","timestamp":"","begin":"","end":"","altitudeMo":"","tessellate":-1,"extrude":0,"visibility":-1,"drawOrder":null,"icon":"","type":"Police Station","state":"Maharastra","district":"Mumbai","city":"Mumbai","location_p":"711","location_1":"Cgs Colony Sector 4","gid":"41","layer_swit":"poi_police_station"}},
{"type":"Feature","geometry":{"type":"Point","coordinates":[72.83902,18.962186,0]},"properties":{"Name":"Dongri PS","descriptio":"","timestamp":"","begin":"","end":"","altitudeMo":"","tessellate":-1,"extrude":0,"visibility":-1,"drawOrder":null,"icon":"","type":"Police Station","state":"Maharastra","district":"Mumbai","city":"Mumbai","location_p":"918","location_1":"Dongri","gid":"42","layer_swit":"poi_police_station"}},
{"type":"Feature","geometry":{"type":"Point","coordinates":[72.834004,18.973606,0]},"properties":{"Name":"Byculla PS","descriptio":"","timestamp":"","begin":"","end":"","altitudeMo":"","tessellate":-1,"extrude":0,"visibility":-1,"drawOrder":null,"icon":"","type":"Police Station","state":"Maharastra","district":"Mumbai","city":"Mumbai","location_p":"682","location_1":"Mustafa Bazar","gid":"43","layer_swit":"poi_police_station"}},
{"type":"Feature","geometry":{"type":"Point","coordinates":[72.835431,19.014996,0]},"properties":{"Name":"Dadar PS","descriptio":"","timestamp":"","begin":"","end":"","altitudeMo":"","tessellate":-1,"extrude":0,"visibility":-1,"drawOrder":null,"icon":"","type":"Police Station","state":"Maharastra","district":"Mumbai","city":"Mumbai","location_p":"787","location_1":"Lokmanya Tilak Colony","gid":"44","layer_swit":"poi_police_station"}},
{"type":"Feature","geometry":{"type":"Point","coordinates":[72.822098,19.192107,0]},"properties":{"Name":"Malwani PS","descriptio":"","timestamp":"","begin":"","end":"","altitudeMo":"","tessellate":-1,"extrude":0,"visibility":-1,"drawOrder":null,"icon":"","type":"Police Station","state":"Maharastra","district":"Mumbai","city":"Mumbai","location_p":"668","location_1":"Malvani","gid":"45","layer_swit":"poi_police_station"}},
{"type":"Feature","geometry":{"type":"Point","coordinates":[72.83351,18.941706,0]},"properties":{"Name":"Azad Maidan PS","descriptio":"","timestamp":"","begin":"","end":"","altitudeMo":"","tessellate":-1,"extrude":0,"visibility":-1,"drawOrder":null,"icon":"","type":"Police Station","state":"Maharastra","district":"Mumbai","city":"Mumbai","location_p":"48","location_1":"Azad Maidan","gid":"46","layer_swit":"poi_police_station"}},
{"type":"Feature","geometry":{"type":"Point","coordinates":[72.829575,18.967087,0]},"properties":{"Name":"Nagpada PS","descriptio":"","timestamp":"","begin":"","end":"","altitudeMo":"","tessellate":-1,"extrude":0,"visibility":-1,"drawOrder":null,"icon":"","type":"Police Station","state":"Maharastra","district":"Mumbai","city":"Mumbai","location_p":"681","location_1":"Mumbai Central","gid":"47","layer_swit":"poi_police_station"}},
{"type":"Feature","geometry":{"type":"Point","coordinates":[72.809116,18.966757,0]},"properties":{"Name":"Gamdevi PS","descriptio":"","timestamp":"","begin":"","end":"","altitudeMo":"","tessellate":-1,"extrude":0,"visibility":-1,"drawOrder":null,"icon":"","type":"Police Station","state":"Maharastra","district":"Mumbai","city":"Mumbai","location_p":"15","location_1":"Gamdevi","gid":"48","layer_swit":"poi_police_station"}},
{"type":"Feature","geometry":{"type":"Point","coordinates":[72.830948,18.991383,0]},"properties":{"Name":"NM Joshi PS","descriptio":"","timestamp":"","begin":"","end":"","altitudeMo":"","tessellate":-1,"extrude":0,"visibility":-1,"drawOrder":null,"icon":"","type":"Police Station","state":"Maharastra","district":"Mumbai","city":"Mumbai","location_p":"609","location_1":"Lower Parel","gid":"49","layer_swit":"poi_police_station"}},
{"type":"Feature","geometry":{"type":"Point","coordinates":[72.917442,19.0583,0]},"properties":{"Name":"Deonar PS","descriptio":"","timestamp":"","begin":"","end":"","altitudeMo":"","tessellate":-1,"extrude":0,"visibility":-1,"drawOrder":null,"icon":"","type":"Police Station","state":"Maharastra","district":"Mumbai","city":"Mumbai","location_p":"709","location_1":"Deonar","gid":"50","layer_swit":"poi_police_station"}},
{"type":"Feature","geometry":{"type":"Point","coordinates":[72.824207,18.976595,0]},"properties":{"Name":"Agripada PS","descriptio":"","timestamp":"","begin":"","end":"","altitudeMo":"","tessellate":-1,"extrude":0,"visibility":-1,"drawOrder":null,"icon":"","type":"Police Station","state":"Maharastra","district":"Mumbai","city":"Mumbai","location_p":"398","location_1":"Rto Colony","gid":"51","layer_swit":"poi_police_station"}},
{"type":"Feature","geometry":{"type":"Point","coordinates":[72.864285,19.252693,0]},"properties":{"Name":"Dahisar PS","descriptio":"","timestamp":"","begin":"","end":"","altitudeMo":"","tessellate":-1,"extrude":0,"visibility":-1,"drawOrder":null,"icon":"","type":"Police Station","state":"Maharastra","district":"Mumbai","city":"Mumbai","location_p":"475","location_1":"Yadav Nagar","gid":"52","layer_swit":"poi_police_station"}},
{"type":"Feature","geometry":{"type":"Point","coordinates":[72.899796,19.087666,0]},"properties":{"Name":"Ghatkopar PS","descriptio":"","timestamp":"","begin":"","end":"","altitudeMo":"","tessellate":-1,"extrude":0,"visibility":-1,"drawOrder":null,"icon":"","type":"Police Station","state":"Maharastra","district":"Mumbai","city":"Mumbai","location_p":"272","location_1":"Chirag Nagar","gid":"53","layer_swit":"poi_police_station"}},
{"type":"Feature","geometry":{"type":"Point","coordinates":[72.860245,19.06457,0]},"properties":{"Name":"Bandra Kurla Complex PS","descriptio":"","timestamp":"","begin":"","end":"","altitudeMo":"","tessellate":-1,"extrude":0,"visibility":-1,"drawOrder":null,"icon":"","type":"Police Station","state":"Maharastra","district":"Mumbai","city":"Mumbai","location_p":"911","location_1":"Bharam Nagar","gid":"54","layer_swit":"poi_police_station"}},
{"type":"Feature","geometry":{"type":"Point","coordinates":[72.857075,19.094629,0]},"properties":{"Name":"Airport PS","descriptio":"","timestamp":"","begin":"","end":"","altitudeMo":"","tessellate":-1,"extrude":0,"visibility":-1,"drawOrder":null,"icon":"","type":"Police Station","state":"Maharastra","district":"Mumbai","city":"Mumbai","location_p":"627","location_1":"Santacruz East","gid":"55","layer_swit":"poi_police_station"}},
{"type":"Feature","geometry":{"type":"Point","coordinates":[72.829764,19.122187,0]},"properties":{"Name":"DN Nagar PS","descriptio":"","timestamp":"","begin":"","end":"","altitudeMo":"","tessellate":-1,"extrude":0,"visibility":-1,"drawOrder":null,"icon":"","type":"Police Station","state":"Maharastra","district":"Mumbai","city":"Mumbai","location_p":"848","location_1":"Shiv Nagar","gid":"56","layer_swit":"poi_police_station"}},
{"type":"Feature","geometry":{"type":"Point","coordinates":[72.875252,19.098885,0]},"properties":{"Name":"Sahar PS","descriptio":"","timestamp":"","begin":"","end":"","altitudeMo":"","tessellate":-1,"extrude":0,"visibility":-1,"drawOrder":null,"icon":"","type":"Police Station","state":"Maharastra","district":"Mumbai","city":"Mumbai","location_p":"912","location_1":"Sahar Village","gid":"57","layer_swit":"poi_police_station"}},
{"type":"Feature","geometry":{"type":"Point","coordinates":[72.837791,19.072868,0]},"properties":{"Name":"Khar PS","descriptio":"","timestamp":"","begin":"","end":"","altitudeMo":"","tessellate":-1,"extrude":0,"visibility":-1,"drawOrder":null,"icon":"","type":"Police Station","state":"Maharastra","district":"Mumbai","city":"Mumbai","location_p":"870","location_1":"Ram Krishna Nagar","gid":"58","layer_swit":"poi_police_station"}},
{"type":"Feature","geometry":{"type":"Point","coordinates":[72.832012,18.954189,0]},"properties":{"Name":"Paidhuni PS","descriptio":"","timestamp":"","begin":"","end":"","altitudeMo":"","tessellate":-1,"extrude":0,"visibility":-1,"drawOrder":null,"icon":"","type":"Police Station","state":"Maharastra","district":"Mumbai","city":"Mumbai","location_p":"41","location_1":"Mumbadevi Area","gid":"59","layer_swit":"poi_police_station"}},
{"type":"Feature","geometry":{"type":"Point","coordinates":[72.857708,19.155806,0]},"properties":{"Name":"Vanrai PS","descriptio":"","timestamp":"","begin":"","end":"","altitudeMo":"","tessellate":-1,"extrude":0,"visibility":-1,"drawOrder":null,"icon":"","type":"Police Station","state":"Maharastra","district":"Mumbai","city":"Mumbai","location_p":"902","location_1":"Sant Rohidas Nagar","gid":"60","layer_swit":"poi_police_station"}},
{"type":"Feature","geometry":{"type":"Point","coordinates":[72.861482,19.199956,0]},"properties":{"Name":"Samta Nagar PS","descriptio":"","timestamp":"","begin":"","end":"","altitudeMo":"","tessellate":-1,"extrude":0,"visibility":-1,"drawOrder":null,"icon":"","type":"Police Station","state":"Maharastra","district":"Mumbai","city":"Mumbai","location_p":"694","location_1":"Samata Nagar","gid":"61","layer_swit":"poi_police_station"}},
{"type":"Feature","geometry":{"type":"Point","coordinates":[72.84227,18.987818,0]},"properties":{"Name":"Kalachowkey PS","descriptio":"","timestamp":"","begin":"","end":"","altitudeMo":"","tessellate":-1,"extrude":0,"visibility":-1,"drawOrder":null,"icon":"","type":"Police Station","state":"Maharastra","district":"Mumbai","city":"Mumbai","location_p":"1446","location_1":"Chatai Chawl","gid":"62","layer_swit":"poi_police_station"}},
{"type":"Feature","geometry":{"type":"Point","coordinates":[72.849223,18.977729,0]},"properties":{"Name":"Sewree PS","descriptio":"","timestamp":"","begin":"","end":"","altitudeMo":"","tessellate":-1,"extrude":0,"visibility":-1,"drawOrder":null,"icon":"","type":"Police Station","state":"Maharastra","district":"Mumbai","city":"Mumbai","location_p":"109","location_1":"Sewri","gid":"63","layer_swit":"poi_police_station"}},
{"type":"Feature","geometry":{"type":"Point","coordinates":[72.831116,18.922348,0]},"properties":{"Name":"Colaba PS","descriptio":"","timestamp":"","begin":"","end":"","altitudeMo":"","tessellate":-1,"extrude":0,"visibility":-1,"drawOrder":null,"icon":"","type":"Police Station","state":"Maharastra","district":"Mumbai","city":"Mumbai","location_p":"1276","location_1":"Police Colony","gid":"64","layer_swit":"poi_police_station"}},
{"type":"Feature","geometry":{"type":"Point","coordinates":[72.817383,19.005187,0]},"properties":{"Name":"Worli PS","descriptio":"","timestamp":"","begin":"","end":"","altitudeMo":"","tessellate":-1,"extrude":0,"visibility":-1,"drawOrder":null,"icon":"","type":"Police Station","state":"Maharastra","district":"Mumbai","city":"Mumbai","location_p":"1413","location_1":"Worli Shivaji Nagar","gid":"65","layer_swit":"poi_police_station"}},
{"type":"Feature","geometry":{"type":"Point","coordinates":[72.849816,19.005017,0]},"properties":{"Name":"RAK PS","descriptio":"","timestamp":"","begin":"","end":"","altitudeMo":"","tessellate":-1,"extrude":0,"visibility":-1,"drawOrder":null,"icon":"","type":"Police Station","state":"Maharastra","district":"Mumbai","city":"Mumbai","location_p":"1120","location_1":"Azad Nagar","gid":"66","layer_swit":"poi_police_station"}},
{"type":"Feature","geometry":{"type":"Point","coordinates":[72.945383,19.038263,0]},"properties":{"Name":"Trombay PS","descriptio":"","timestamp":"","begin":"","end":"","altitudeMo":"","tessellate":-1,"extrude":0,"visibility":-1,"drawOrder":null,"icon":"","type":"Police Station","state":"Maharastra","district":"Mumbai","city":"Mumbai","location_p":"162","location_1":"Cheeta Camp  Sector G","gid":"67","layer_swit":"poi_police_station"}},
{"type":"Feature","geometry":{"type":"Point","coordinates":[72.9373,19.129711,0]},"properties":{"Name":"Kanjurmarg PS","descriptio":"","timestamp":"","begin":"","end":"","altitudeMo":"","tessellate":-1,"extrude":0,"visibility":-1,"drawOrder":null,"icon":"","type":"Police Station","state":"Maharastra","district":"Mumbai","city":"Mumbai","location_p":"749","location_1":"Damle Colony","gid":"68","layer_swit":"poi_police_station"}},
{"type":"Feature","geometry":{"type":"Point","coordinates":[72.799095,18.949434,0]},"properties":{"Name":"Malbar Hill PS","descriptio":"","timestamp":"","begin":"","end":"","altitudeMo":"","tessellate":-1,"extrude":0,"visibility":-1,"drawOrder":null,"icon":"","type":"Police Station","state":"Maharastra","district":"Mumbai","city":"Mumbai","location_p":"1443","location_1":"Walkeshwar","gid":"69","layer_swit":"poi_police_station"}},
{"type":"Feature","geometry":{"type":"Point","coordinates":[72.823944,18.955713,0]},"properties":{"Name":"VP Road PS","descriptio":"","timestamp":"","begin":"","end":"","altitudeMo":"","tessellate":-1,"extrude":0,"visibility":-1,"drawOrder":null,"icon":"","type":"Police Station","state":"Maharastra","district":"Mumbai","city":"Mumbai","location_p":"32","location_1":"Grand Road Area","gid":"70","layer_swit":"poi_police_station"}},
{"type":"Feature","geometry":{"type":"Point","coordinates":[72.895611,19.036835,0]},"properties":{"Name":"RCF PS","descriptio":"","timestamp":"","begin":"","end":"","altitudeMo":"","tessellate":-1,"extrude":0,"visibility":-1,"drawOrder":null,"icon":"","type":"Police Station","state":"Maharastra","district":"Mumbai","city":"Mumbai","location_p":"326","location_1":"Azad Nagar","gid":"71","layer_swit":"poi_police_station"}},
{"type":"Feature","geometry":{"type":"Point","coordinates":[72.884212,19.071739,0]},"properties":{"Name":"Vinoba Bhave Nagar PS","descriptio":"","timestamp":"","begin":"","end":"","altitudeMo":"","tessellate":-1,"extrude":0,"visibility":-1,"drawOrder":null,"icon":"","type":"Police Station","state":"Maharastra","district":"Mumbai","city":"Mumbai","location_p":"975","location_1":"Vinobha Bhave Nagar","gid":"72","layer_swit":"poi_police_station"}},
{"type":"Feature","geometry":{"type":"Point","coordinates":[72.916176,19.086893,0]},"properties":{"Name":"Pant Nagar PS","descriptio":"","timestamp":"","begin":"","end":"","altitudeMo":"","tessellate":-1,"extrude":0,"visibility":-1,"drawOrder":null,"icon":"","type":"Police Station","state":"Maharastra","district":"Mumbai","city":"Mumbai","location_p":"795","location_1":"Savitribai Phule Nagar","gid":"73","layer_swit":"poi_police_station"}},
{"type":"Feature","geometry":{"type":"Point","coordinates":[72.848179,19.120243,0]},"properties":{"Name":"Andheri PS","descriptio":"","timestamp":"","begin":"","end":"","altitudeMo":"","tessellate":-1,"extrude":0,"visibility":-1,"drawOrder":null,"icon":"","type":"Police Station","state":"Maharastra","district":"Mumbai","city":"Mumbai","location_p":"1157","location_1":"Sai Baba Wadi","gid":"74","layer_swit":"poi_police_station"}},
{"type":"Feature","geometry":{"type":"Point","coordinates":[72.850357,19.06573,0]},"properties":{"Name":"Kherwadi PS","descriptio":"","timestamp":"","begin":"","end":"","altitudeMo":"","tessellate":-1,"extrude":0,"visibility":-1,"drawOrder":null,"icon":"","type":"Police Station","state":"Maharastra","district":"Mumbai","city":"Mumbai","location_p":"297","location_1":"Ambedkar Nagar","gid":"75","layer_swit":"poi_police_station"}},
{"type":"Feature","geometry":{"type":"Point","coordinates":[72.844727,19.066006,0]},"properties":{"Name":"Nirmal Nagar PS","descriptio":"","timestamp":"","begin":"","end":"","altitudeMo":"","tessellate":-1,"extrude":0,"visibility":-1,"drawOrder":null,"icon":"","type":"Police Station","state":"Maharastra","district":"Mumbai","city":"Mumbai","location_p":"634","location_1":"Khar East","gid":"76","layer_swit":"poi_police_station"}},
{"type":"Feature","geometry":{"type":"Point","coordinates":[72.875011,19.033054,0]},"properties":{"Name":"Wadala Truck Terminal PS","descriptio":"","timestamp":"","begin":"","end":"","altitudeMo":"","tessellate":-1,"extrude":0,"visibility":-1,"drawOrder":null,"icon":"","type":"Police Station","state":"Maharastra","district":"Mumbai","city":"Mumbai","location_p":"1579","location_1":"Antop Hill Warehousing Complex","gid":"77","layer_swit":"poi_police_station"}},
{"type":"Feature","geometry":{"type":"Point","coordinates":[72.868111,19.11764,0]},"properties":{"Name":"MIDC PS","descriptio":"","timestamp":"","begin":"","end":"","altitudeMo":"","tessellate":-1,"extrude":0,"visibility":-1,"drawOrder":null,"icon":"","type":"Police Station","state":"Maharastra","district":"Mumbai","city":"Mumbai","location_p":"231","location_1":"Chakala Industrial Area","gid":"78","layer_swit":"poi_police_station"}},
{"type":"Feature","geometry":{"type":"Point","coordinates":[72.861023,19.131544,0]},"properties":{"Name":"Meghwadi PS","descriptio":"","timestamp":"","begin":"","end":"","altitudeMo":"","tessellate":-1,"extrude":0,"visibility":-1,"drawOrder":null,"icon":"","type":"Police Station","state":"Maharastra","district":"Mumbai","city":"Mumbai","location_p":"1129","location_1":"Income Tax Colony","gid":"79","layer_swit":"poi_police_station"}},
{"type":"Feature","geometry":{"type":"Point","coordinates":[72.84716,19.080801,0]},"properties":{"Name":"Vakola PS","descriptio":"","timestamp":"","begin":"","end":"","altitudeMo":"","tessellate":-1,"extrude":0,"visibility":-1,"drawOrder":null,"icon":"","type":"Police Station","state":"Maharastra","district":"Mumbai","city":"Mumbai","location_p":"1164","location_1":"Anand Nagar","gid":"80","layer_swit":"poi_police_station"}},
{"type":"Feature","geometry":{"type":"Point","coordinates":[72.854553,19.096216,0]},"properties":{"Name":"Vileparle PS","descriptio":"","timestamp":"","begin":"","end":"","altitudeMo":"","tessellate":-1,"extrude":0,"visibility":-1,"drawOrder":null,"icon":"","type":"Police Station","state":"Maharastra","district":"Mumbai","city":"Mumbai","location_p":"626","location_1":"Vile Parle East","gid":"81","layer_swit":"poi_police_station"}},
{"type":"Feature","geometry":{"type":"Point","coordinates":[72.831589,19.147545,0]},"properties":{"Name":"Oshiwara PS","descriptio":"","timestamp":"","begin":"","end":"","altitudeMo":"","tessellate":-1,"extrude":0,"visibility":-1,"drawOrder":null,"icon":"","type":"Police Station","state":"Maharastra","district":"Mumbai","city":"Mumbai","location_p":"830","location_1":"Milat Nagar","gid":"82","layer_swit":"poi_police_station"}},
{"type":"Feature","geometry":{"type":"Point","coordinates":[72.85434,19.138078,0]},"properties":{"Name":"Jogeshwari PS","descriptio":"","timestamp":"","begin":"","end":"","altitudeMo":"","tessellate":-1,"extrude":0,"visibility":-1,"drawOrder":null,"icon":"","type":"Police Station","state":"Maharastra","district":"Mumbai","city":"Mumbai","location_p":"1208","location_1":"Gupha Tekdi","gid":"83","layer_swit":"poi_police_station"}},
{"type":"Feature","geometry":{"type":"Point","coordinates":[72.895721,19.109966,0]},"properties":{"Name":"Sakinaka PS","descriptio":"","timestamp":"","begin":"","end":"","altitudeMo":"","tessellate":-1,"extrude":0,"visibility":-1,"drawOrder":null,"icon":"","type":"Police Station","state":"Maharastra","district":"Mumbai","city":"Mumbai","location_p":"523","location_1":"Mhada Colony","gid":"84","layer_swit":"poi_police_station"}},
{"type":"Feature","geometry":{"type":"Point","coordinates":[72.857796,19.031141,0]},"properties":{"Name":"Matunga PS","descriptio":"","timestamp":"","begin":"","end":"","altitudeMo":"","tessellate":-1,"extrude":0,"visibility":-1,"drawOrder":null,"icon":"","type":"Police Station","state":"Maharastra","district":"Mumbai","city":"Mumbai","location_p":"1303","location_1":"Sion Hospital Colony","gid":"85","layer_swit":"poi_police_station"}},
{"type":"Feature","geometry":{"type":"Point","coordinates":[72.921417,19.061201,0]},"properties":{"Name":"Shivaji Nagar PS","descriptio":"","timestamp":"","begin":"","end":"","altitudeMo":"","tessellate":-1,"extrude":0,"visibility":-1,"drawOrder":null,"icon":"","type":"Police Station","state":"Maharastra","district":"Mumbai","city":"Mumbai","location_p":"616","location_1":"Mankhurd","gid":"86","layer_swit":"poi_police_station"}},
{"type":"Feature","geometry":{"type":"Point","coordinates":[72.844644,19.183618,0]},"properties":{"Name":"Bangur Nagar Police Station","descriptio":"","timestamp":"","begin":"","end":"","altitudeMo":"","tessellate":-1,"extrude":0,"visibility":-1,"drawOrder":null,"icon":"","type":"Police Station","state":"Maharastra","district":"Mumbai","city":"Mumbai","location_p":"1220","location_1":"Mamletdar Wadi","gid":"87","layer_swit":"poi_police_station"}},
{"type":"Feature","geometry":{"type":"Point","coordinates":[72.951797,19.177345,0]},"properties":{"Name":"Mulund PS","descriptio":"","timestamp":"","begin":"","end":"","altitudeMo":"","tessellate":-1,"extrude":0,"visibility":-1,"drawOrder":null,"icon":"","type":"Police Station","state":"Maharastra","district":"Mumbai","city":"Mumbai","location_p":"835","location_1":"Siddharat Nagar","gid":"88","layer_swit":"poi_police_station"}},
{"type":"Feature","geometry":{"type":"Point","coordinates":[72.938358,19.121695,0]},"properties":{"Name":"Vikhroli PS","descriptio":"","timestamp":"","begin":"","end":"","altitudeMo":"","tessellate":-1,"extrude":0,"visibility":-1,"drawOrder":null,"icon":"","type":"Police Station","state":"Maharastra","district":"Mumbai","city":"Mumbai","location_p":"716","location_1":"Kannamwar Nagar Ii","gid":"89","layer_swit":"poi_police_station"}},
{"type":"Feature","geometry":{"type":"Point","coordinates":[72.899456,19.119686,0]},"properties":{"Name":"Powai PS","descriptio":"","timestamp":"","begin":"","end":"","altitudeMo":"","tessellate":-1,"extrude":0,"visibility":-1,"drawOrder":null,"icon":"","type":"Police Station","state":"Maharastra","district":"Mumbai","city":"Mumbai","location_p":"1330","location_1":"Rambaug","gid":"90","layer_swit":"poi_police_station"}},
{"type":"Feature","geometry":{"type":"Point","coordinates":[72.832672,19.103124,0]},"properties":{"Name":"Juhu PS","descriptio":"","timestamp":"","begin":"","end":"","altitudeMo":"","tessellate":-1,"extrude":0,"visibility":-1,"drawOrder":null,"icon":"","type":"Police Station","state":"Maharastra","district":"Mumbai","city":"Mumbai","location_p":"656","location_1":"Juhu Tara","gid":"91","layer_swit":"poi_police_station"}}
]}
